084252,A,5126.8894,N,00206.5984,W,000.0,000.0,090814,,,A*66
$GPGGA,084253,5126.8894,N,00206.5984,W,1,06,02.4,00081.3,M,049.5,M,,*53
$GPGSA,A,3,06,12,14,25,31,32,,,,,,,03.2,02.4,02.0*03
$GPGSV,3,1,10,06,16,070,41,12,79,054,48,14,50,281,51,17,03,032,00*72
$GPGSV,3,2,10,22,02,253,00,24,48,120,26,25,60,253,40,31,07,296,39*71
$GPGSV,3,3,10,32,09,328,40,33,,,00,,,,,,,,*4D
$GPRMC,084253,A,5126.8894,N,00206.5984,W,000.0,000.0,090814,,,A*67
$GPGGA,084254,5126.8894,N,00206.5984,W,1,06,02.4,00081.3,M,049.5,M,,*54
$GPGSA,A,3,06,12,14,25,31,32,,,,,,,03.2,02.4,02.0*03
$GPGSV,3,1,11,06,16,070,42,12,79,054,49,14,50,281,51,17,03,032,00*71
$GPGSV,3,2,11,22,02,253,00,24,48,120,00,25,60,253,40,31,07,296,40*7A
$GPGSV,3,3,11,32,09,328,41,05,,,26,33,,,00,,,,*4C
$GPRMC,084254,A,5126.8894,N,00206.5984,W,000.0,000.0,090814,,,A*60
$GPGGA,084255,5126.8894,N,00206.5984,W,1,06,02.4,00081.3,M,049.5,M,,*55
$GPGSA,A,3,06,12,14,25,31,32,,,,,,,03.2,02.4,02.0*03
$GPGSV,3,1,10,06,16,070,41,12,79,054,48,14,50,281,51,17,03,032,00*72
$GPGSV,3,2,10,22,02,253,00,24,48,120,00,25,60,253,39,31,07,296,40*75
$GPGSV,3,3,10,32,09,328,41,33,,,00,,,,,,,,*4C
$GPRMC,084255,A,5126.8894,N,00206.5984,W,000.0,000.0,090814,,,A*61
$GPGGA,084256,5126.8894,N,00206.5984,W,1,06,02.4,00081.2,M,049.5,M,,*57
$GPGSA,A,3,06,12,14,25,31,32,,,,,,,03.2,02.4,02.0*03
$GPGSV,3,1,10,06,16,070,41,12,79,054,48,14,50,281,51,17,03,032,00*72
$GPGSV,3,2,10,22,02,253,00,24,48,120,00,25,60,253,40,31,07,296,39*75
$GPGSV,3,3,10,32,09,328,41,33,,,00,,,,,,,,*4C
$GPRMC,084256,A,5126.8894,N,00206.5984,W,000.0,000.0,090814,,,A*62
$GPGGA,084257,5126.8894,N,00206.5984,W,1,06,02.4,00081.2,M,049.5,M,,*56
$GPGSA,A,3,06,12,14,25,31,32,,,,,,,03.2,02.4,02.0*03
$GPGSV,3,1,09,06,16,070,41,12,79,054,47,14,50,281,51,17,03,032,00*75
$GPGSV,3,2,09,22,02,253,00,24,48,120,27,25,60,253,39,31,07,296,40*78
$GPGSV,3,3,09,32,09,328,40,,,,,,,,,,,,*45
$GPRMC,084257,A,5126.8894,N,00206.5984,W,000.0,000.0,090814,,,A*63
$GPGGA,084258,5126.8894,N,00206.5984,W,1,06,02.4,00081.2,M,049.5,M,,*59
$GPGSA,A,3,06,12,14,25,31,32,,,,,,,03.2,02.4,02.0*03
$GPGSV,3,1,10,06,16,070,41,12,79,054,49,14,50,281,51,17,03,032,00*73
$GPGSV,3,2,10,22,02,253,00,24,48,120,25,25,60,253,40,31,07,296,41*7D
$GPGSV,3,3,10,32,09,328,41,07,,,28,,,,,,,,*41
$GPRMC,084258,A,5126.8894,N,00206.5984,W,000.0,000.0,090814,,,A*6C
$GPGGA,084259,5126.8895,N,00206.5984,W,1,06,02.4,00081.2,M,049.5,M,,*59
$GPGSA,A,3,06,12,14,25,31,32,,,,,,,03.2,02.4,02.0*03
$GPGSV,3,1,09,06,16,070,41,12,79,054,49,14,50,281,50,17,03,032,00*7A
$GPGSV,3,2,09,22,02,253,00,24,48,120,00,25,60,253,40,31,07,296,39*7D
$GPGSV,3,3,09,32,09,328,41,,,,,,,,,,,,*44
$GPRMC,084259,A,5126.8895,N,00206.5984,W,000.0,000.0,090814,,,A*6C
$GPGGA,084300,5126.8895,N,00206.5984,W,1,06,02.4,00081.2,M,049.5,M,,*54
$GPGSA,A,3,06,12,14,25,31,32,,,,,,,03.2,02.4,02.0*03
$GPGSV,3,1,10,06,16,070,41,12,79,054,48,14,50,281,50,17,03,032,00*73
$GPGSV,3,2,10,22,02,253,00,24,48,120,00,25,60,253,38,31,07,296,39*7A
$GPGSV,3,3,10,32,09,328,41,33,,,00,,,,,,,,*4C
$GPRMC,084300,A,5126.8895,N,00206.5984,W,000.0,000.0,090814,,,A*61
$GPGGA,084301,5126.8895,N,00206.5984,W,1,06,02.4,00081.2,M,049.5,M,,*55
$GPGSA,A,3,06,12,14,25,31,32,,,,,,,03.2,02.4,02.0*03
$GPGSV,3,1,10,06,16,070,40,12,79,054,48,14,50,281,50,17,03,032,00*72
$GPGSV,3,2,10,22,02,253,00,24,48,120,28,25,60,253,39,31,07,296,39*71
$GPGSV,3,3,10,32,09,328,41,33,,,00,,,,,,,,*4C
$GPRMC,084301,A,5126.8895,N,00206.5984,W,000.0,000.0,090814,,,A*60
$GPGGA,084302,5126.8895,N,00206.5984,W,1,06,02.4,00081.2,M,049.5,M,,*56
$GPGSA,A,3,06,12,14,25,31,32,,,,,,,03.2,02.4,02.0*03
$GPGSV,3,1,10,06,16,070,40,12,79,054,49,14,50,281,49,17,03,032,00*7B
$GPGSV,3,2,10,22,02,253,00,24,48,120,27,25,60,253,38,31,07,296,40*71
$GPGSV,3,3,10,32,09,328,41,33,,,00,,,,,,,,*4C
$GPRMC,084302,A,5126.8895,N,00206.5984,W,000.0,000.0,090814,,,A*63
$GPGGA,084303,5126.8895,N,00206.5984,W,1,06,02.4,00081.2,M,049.5,M,,*57
$GPGSA,A,3,06,12,14,25,31,32,,,,,,,03.2,02.4,02.0*03
$GPGSV,3,1,10,06,16,070,41,12,79,054,49,14,50,281,51,17,03,032,00*73
$GPGSV,3,2,10,22,02,253,00,24,48,120,00,25,60,253,37,31,07,296,40*7B
$GPGSV,3,3,10,32,09,328,42,33,,,00,,,,,,,,*4F
$GPRMC,084303,A,5126.8895,N,00206.5984,W,000.0,000.0,090814,,,A*62
$GPGGA,084304,5126.8895,N,00206.5984,W,1,06,02.4,00081.2,M,049.5,M,,*50
$GPGSA,A,3,06,12,14,25,31,32,,,,,,,03.2,02.4,02.0*03
$GPGSV,3,1,10,06,16,070,40,12,79,054,48,14,50,281,49,17,03,032,00*7A
$GPGSV,3,2,10,22,02,253,00,24,48,120,00,25,60,253,38,31,07,296,40*74
$GPGSV,3,3,10,32,09,328,42,33,,,00,,,,,,,,*4F
$GPRMC,084304,A,5126.8895,N,00206.5984,W,000.0,000.0,090814,,,A*65
$GPGGA,084305,5126.8895,N,00206.5984,W,1,06,02.4,00081.2,M,049.5,M,,*51
$GPGSA,A,3,06,12,14,25,31,32,,,,,,,03.2,02.4,02.0*03
$GPGSV,3,1,10,06,16,070,41,12,79,054,48,14,50,281,49,17,03,032,00*7B
$GPGSV,3,2,10,22,02,253,00,24,48,120,00,25,60,253,38,31,07,296,39*7A
$GPGSV,3,3,10,32,09,328,42,33,,,00,,,,,,,,*4F
$GPRMC,084305,A,5126.8895,N,00206.5984,W,000.0,000.0,090814,,,A*64
$GPGGA,084306,5126.8895,N,00206.5984,W,1,06,02.4,00081.2,M,049.5,M,,*52
$GPGSA,A,3,06,12,14,25,31,32,,,,,,,03.2,02.4,02.0*03
$GPGSV,3,1,10,06,16,070,40,12,79,054,48,14,50,281,50,17,03,032,00*72
$GPGSV,3,2,10,22,02,253,00,24,48,120,26,25,60,253,38,31,07,296,40*70
$GPGSV,3,3,10,32,09,328,41,33,,,00,,,,,,,,*4C
$GPRMC,084306,A,5126.8895,N,00206.5984,W,000.0,000.0,090814,,,A*67
$GPGGA,084307,5126.8895,N,00206.5984,W,1,06,02.4,00081.2,M,049.5,M,,*53
$GPGSA,A,3,06,12,14,25,31,32,,,,,,,03.2,02.4,02.0*03
$GPGSV,3,1,10,06,16,070,41,12,79,054,49,14,50,281,50,17,03,032,00*72
$GPGSV,3,2,10,22,02,253,00,24,48,120,00,25,60,253,39,31,07,296,40*75
$GPGSV,3,3,10,32,09,328,41,33,,,00,,,,,,,,*4C
$GPRMC,084307,A,5126.8895,N,00206.5984,W,000.0,000.0,090814,,,A*66
$GPGGA,084308,5126.8895,N,00206.5984,W,1,06,02.4,00081.2,M,049.5,M,,*5C
$GPGSA,A,3,06,12,14,25,31,32,,,,,,,03.2,02.4,02.0*03
$GPGSV,3,1,10,06,16,070,41,12,79,054,49,14,50,281,50,17,03,032,00*72
$GPGSV,3,2,10,22,02,253,00,24,48,120,00,25,60,253,40,31,07,296,41*7A
$GPGSV,3,3,10,32,09,328,42,33,,,00,,,,,,,,*4F
$GPRMC,084308,A,5126.8895,N,00206.5984,W,000.0,000.0,090814,,,A*69
$GPGGA,084309,5126.8895,N,00206.5984,W,1,06,02.4,00081.2,M,049.5,M,,*5D
$GPGSA,A,3,06,12,14,25,31,32,,,,,,,03.2,02.4,02.0*03
$GPGSV,3,1,10,06,16,070,41,12,79,054,49,14,50,281,50,17,03,032,00*72
$GPGSV,3,2,10,22,02,253,00,24,48,120,26,25,60,253,39,31,07,296,40*71
$GPGSV,3,3,10,32,09,328,41,33,,,00,,,,,,,,*4C
$GPRMC,084309,A,5126.8895,N,00206.5984,W,000.0,000.0,090814,,,A*68
$GPGGA,084310,5126.8895,N,00206.5984,W,1,06,02.4,00081.2,M,049.5,M,,*55
$GPGSA,A,3,06,12,14,25,31,32,,,,,,,03.2,02.4,02.0*03
$GPGSV,3,1,09,06,16,070,41,12,79,054,49,14,50,281,50,17,03,032,00*7A
$GPGSV,3,2,09,22,02,253,00,24,48,120,00,25,60,253,39,31,07,296,40*7D
$GPGSV,3,3,09,32,09,328,42,,,,,,,,,,,,*47
$GPRMC,084310,A,5126.8895,N,00206.5984,W,000.0,000.0,090814,,,A*60
$GPGGA,084311,5126.8895,N,00206.5984,W,1,06,02.4,00081.2,M,049.5,M,,*54
$GPGSA,A,3,06,12,14,25,31,32,,,,,,,03.2,02.4,02.0*03
$GPGSV,3,1,09,06,16,070,41,12,79,054,50,14,50,281,51,17,03,032,00*73
$GPGSV,3,2,09,22,02,253,00,24,48,120,00,25,60,253,40,31,07,296,40*73
$GPGSV,3,3,09,32,09,328,42,,,,,,,,,,,,*47
$GPRMC,084311,A,5126.8895,N,00206.5984,W,000.0,000.0,090814,,,A*61
$GPGGA,084312,5126.8895,N,00206.5984,W,1,06,02.4,00081.2,M,049.5,M,,*57
$GPGSA,A,3,06,12,14,25,31,32,,,,,,,03.2,02.4,02.0*03
$GPGSV,3,1,09,06,16,070,41,12,79,054,47,14,50,281,50,17,03,032,00*74
$GPGSV,3,2,09,22,02,253,00,24,48,120,00,25,60,253,39,31,07,296,40*7D
$GPGSV,3,3,09,32,09,328,42,,,,,,,,,,,,*47
$GPRMC,084312,A,5126.8895,N,00206.5984,W,000.0,000.0,090814,,,A*62
$GPGGA,084313,5126.8895,N,00206.5984,W,1,06,02.4,00081.1,M,049.5,M,,*55
$GPGSA,A,3,06,12,14,25,31,32,,,,,,,03.2,02.4,02.0*03
$GPGSV,3,1,09,06,16,070,41,12,79,054,48,14,50,281,50,17,03,032,00*7B
$GPGSV,3,2,09,22,02,253,00,24,48,120,00,25,60,253,40,31,07,296,40*73
$GPGSV,3,3,09,32,09,328,43,,,,,,,,,,,,*46
$GPRMC,084313,A,5126.8895,N,00206.5984,W,000.0,000.0,090814,,,A*63
$GPGGA,084314,5126.8895,N,00206.5984,W,1,06,02.4,00081.1,M,049.5,M,,*52
$GPGSA,A,3,06,12,14,25,31,32,,,,,,,03.2,02.4,02.0*03
$GPGSV,3,1,09,06,16,070,40,12,79,054,49,14,50,281,50,17,03,032,00*7B
$GPGSV,3,2,09,22,02,253,00,24,48,120,36,25,60,253,41,31,07,296,37*77
$GPGSV,3,3,09,32,09,328,43,,,,,,,,,,,,*46
$GPRMC,084314,A,5126.8895,N,00206.5984,W,000.0,000.0,090814,,,A*64
$GPGGA,084315,5126.8894,N,00206.5984,W,1,06,02.4,00081.1,M,049.5,M,,*52
$GPGSA,A,3,06,12,14,25,31,32,,,,,,,03.2,02.4,02.0*03
$GPGSV,3,1,10,06,16,070,39,12,79,054,49,14,50,281,51,17,03,032,00*7C
$GPGSV,3,2,10,22,02,253,00,24,48,120,37,25,60,253,41,31,07,296,39*70
$GPGSV,3,3,10,32,09,328,42,33,,,00,,,,,,,,*4F
$GPRMC,084315,A,5126.8894,N,00206.5984,W,000.0,000.0,090814,,,A*64
$GPGGA,084316,5126.8894,N,00206.5984,W,1,06,02.4,00081.1,M,049.5,M,,*51
$GPGSA,A,3,06,12,14,25,31,32,,,,,,,03.2,02.4,02.0*03
$GPGSV,3,1,10,06,16,070,41,12,79,054,49,14,50,281,50,17,03,032,00*72
$GPGSV,3,2,10,22,02,253,00,24,48,120,36,25,60,253,41,31,07,296,40*7F
$GPGSV,3,3,10,32,09,328,43,33,,,00,,,,,,,,*4E
$GPRMC,084316,A,5126.8894,N,00206.5984,W,000.0,000.0,090814,,,A*67
$GPGGA,084317,5126.8894,N,00206.5984,W,1,06,02.4,00081.1,M,049.5,M,,*50
$GPGSA,A,3,06,12,14,25,31,32,,,,,,,03.2,02.4,02.0*03
$GPGSV,3,1,10,06,16,070,40,12,79,054,49,14,50,281,50,17,03,032,00*73
$GPGSV,3,2,10,22,02,253,00,24,48,120,36,25,60,253,38,31,07,296,39*7F
$GPGSV,3,3,10,32,09,328,41,33,,,00,,,,,,,,*4C
$GPRMC,084317,A,5126.8894,N,00206.5984,W,000.0,000.0,090814,,,A*66
$GPGGA,084318,5126.8894,N,00206.5984,W,1,06,02.4,00081.1,M,049.5,M,,*5F
$GPGSA,A,3,06,12,14,25,31,32,,,,,,,03.2,02.4,02.0*03
$GPGSV,3,1,10,06,16,070,40,12,79,054,49,14,50,281,50,17,03,032,00*73
$GPGSV,3,2,10,22,02,253,00,24,48,120,36,25,60,253,39,31,07,296,39*7E
$GPGSV,3,3,10,32,09,328,42,33,,,00,,,,,,,,*4F
$GPRMC,084318,A,5126.8894,N,00206.5984,W,000.0,000.0,090814,,,A*69
$GPGGA,084319,5126.8894,N,00206.5984,W,1,06,02.4,00081.1,M,049.5,M,,*5E
$GPGSA,A,3,06,12,14,25,31,32,,,,,,,03.2,02.4,02.0*03
$GPGSV,3,1,10,06,16,070,41,12,79,054,50,14,50,281,50,17,03,032,00*7A
$GPGSV,3,2,10,22,02,252,00,24,48,120,36,25,60,253,41,31,07,296,40*7E
$GPGSV,3,3,10,32,09,328,42,33,,,00,,,,,,,,*4F
$GPRMC,084319,A,5126.8894,N,00206.5984,W,000.0,000.0,090814,,,A*68
$GPGGA,084320,5126.8894,N,00206.5984,W,1,06,02.4,00081.1,M,049.5,M,,*54
$GPGSA,A,3,06,12,14,25,31,32,,,,,,,03.2,02.4,02.0*03
$GPGSV,3,1,10,06,16,070,39,12,79,054,49,14,50,281,49,17,03,032,00*75
$GPGSV,3,2,10,22,02,252,00,24,48,120,36,25,60,253,41,31,07,296,39*70
$GPGSV,3,3,10,32,09,328,41,33,,,00,,,,,,,,*4C
$GPRMC,084320,A,5126.8894,N,00206.5984,W,000.0,000.0,090814,,,A*62
$GPGGA,084321,5126.8894,N,00206.5984,W,1,06,02.4,00081.0,M,049.5,M,,*54
$GPGSA,A,3,06,12,14,25,31,32,,,,,,,03.2,02.4,02.0*03
$GPGSV,3,1,10,06,16,070,38,12,79,054,49,14,50,281,50,17,03,032,00*7C
$GPGSV,3,2,10,22,02,252,00,24,48,120,36,25,60,253,40,31,07,296,38*70
$GPGSV,3,3,10,32,09,328,41,33,,,00,,,,,,,,*4C
$GPRMC,084321,A,5126.8894,N,00206.5984,W,000.0,000.0,090814,,,A*63
$GPGGA,084322,5126.8894,N,00206.5984,W,1,06,02.4,00081.0,M,049.5,M,,*57
$GPGSA,A,3,06,12,14,25,31,32,,,,,,,03.2,02.4,02.0*03
$GPGSV,3,1,11,06,16,070,39,12,79,054,49,14,50,281,50,17,03,032,00*7C
$GPGSV,3,2,11,22,02,252,00,24,48,120,36,25,60,253,40,31,07,296,39*70
$GPGSV,3,3,11,32,09,328,41,02,,,2